{"_id":"0K1HRxDISm","nome":"Alagoas","_created_at":{"$date":"2018-04-03T22:01:25.960Z"},"_updated_at":{"$date":"2018-04-03T22:01:25.960Z"},"location":{"__type": "GeoPoint","latitude": -9.773910000000001,"longitude": -36.6917}}
{"_id":"56BpPF4D23","nome":"Mato Grosso","_created_at":{"$date":"2018-04-05T17:14:25.930Z"},"_updated_at":{"$date":"2018-04-05T17:14:25.930Z"},"location":{"__type": "GeoPoint","latitude": -13.3926,"longitude": -55.9235}}
{"_id":"69SasY0zi6","nome":"Maranhão","_created_at":{"$date":"2018-04-05T17:13:40.866Z"},"_updated_at":{"$date":"2018-04-05T17:13:40.866Z"},"location":{"__type": "GeoPoint","latitude": -5.01897,"longitude": -45.389}}
{"_id":"85sJAm1r6U","nome":"Bahia","_created_at":{"$date":"2018-04-05T17:11:19.436Z"},"_updated_at":{"$date":"2018-04-05T17:11:19.436Z"},"location":{"__type": "GeoPoint","latitude": -12.3651,"longitude": -41.8027}}
{"_id":"AlYatcbiCI","nome":"Minas Gerais","_created_at":{"$date":"2018-04-05T17:15:01.971Z"},"_updated_at":{"$date":"2018-04-05T17:15:01.971Z"},"location":{"__type": "GeoPoint","latitude": -18.5895,"longitude": -44.4808}}
{"_id":"C8gAIrT7GW","nome":"Goiás","_created_at":{"$date":"2018-04-05T17:13:13.428Z"},"_updated_at":{"$date":"2018-04-05T17:13:13.428Z"},"location":{"__type": "GeoPoint","latitude": -15.863,"longitude": -49.5786}}
{"_id":"DqdwVM5wce","nome":"Distrito Federal","_created_at":{"$date":"2018-04-05T17:12:16.527Z"},"_updated_at":{"$date":"2018-04-05T17:12:16.527Z"},"location":{"__type": "GeoPoint","latitude": -15.7665,"longitude": -47.7902}}
{"_id":"GLQ3T8g3e1","nome":"Paraíba","_created_at":{"$date":"2018-04-05T17:16:52.385Z"},"_updated_at":{"$date":"2018-04-05T17:16:52.385Z"},"location":{"__type": "GeoPoint","latitude": -7.34234,"longitude": -36.2726}}
{"_id":"GzjD1qKcNp","nome":"Amapá","_created_at":{"$date":"2018-04-05T17:10:20.736Z"},"_updated_at":{"$date":"2018-04-05T17:10:20.736Z"},"location":{"__type": "GeoPoint","latitude": 1.41157,"longitude": -51.6842}}
{"_id":"IjuxXZmtdy","nome":"Espírito Santo","_created_at":{"$date":"2018-04-05T17:12:49.224Z"},"_updated_at":{"$date":"2018-04-05T17:12:49.224Z"},"location":{"__type": "GeoPoint","latitude": -19.6916,"longitude": -40.5436}}
{"_id":"Kziaz8hQfG","nome":"Rio de Janeiro","_created_at":{"$date":"2018-04-05T17:05:44.796Z"},"_updated_at":{"$date":"2018-04-05T17:05:44.796Z"},"location":{"__type": "GeoPoint","latitude": -22.4049,"longitude": -43.1152}}
{"_id":"P4zSUpnHFw","nome":"Tocatins","_created_at":{"$date":"2018-04-05T17:20:56.296Z"},"_updated_at":{"$date":"2018-04-05T17:20:56.296Z"},"location":{"__type": "GeoPoint","latitude": -10.223,"longitude": -48.2502}}
{"_id":"QYtwCqvboj","nome":"Rio Grande do Norte","_created_at":{"$date":"2018-04-05T17:18:45.249Z"},"_updated_at":{"$date":"2018-04-05T17:18:45.249Z"},"location":{"__type": "GeoPoint","latitude": -5.66157,"longitude": -36.5472}}
{"_id":"QxSz4t1DuL","nome":"Ceará","_created_at":{"$date":"2018-04-05T17:11:37.854Z"},"_updated_at":{"$date":"2018-04-05T17:11:37.854Z"},"location":{"__type": "GeoPoint","latitude": -5.37602,"longitude": -39.3429}}
{"_id":"R5sMv78xYH","nome":"Mato Grosso do Sul","_created_at":{"$date":"2018-04-05T17:14:44.617Z"},"_updated_at":{"$date":"2018-04-05T17:14:44.617Z"},"location":{"__type": "GeoPoint","latitude": -20.6756,"longitude": -54.5502}}
{"_id":"RNb90ZkY00","nome":"Roraima","_created_at":{"$date":"2018-04-05T17:20:08.725Z"},"_updated_at":{"$date":"2018-04-05T17:20:08.725Z"},"location":{"__type": "GeoPoint","latitude": 1.93803,"longitude": -61.3325}}
{"_id":"XX4jqic3ej","nome":"São Paulo","_created_at":{"$date":"2018-04-05T17:05:41.277Z"},"_updated_at":{"$date":"2018-04-05T17:05:41.277Z"},"location":{"__type": "GeoPoint","latitude": -22.2267,"longitude": -48.5206}}
{"_id":"XmxLfXXlvC","nome":"Acre","_created_at":{"$date":"2018-04-05T17:09:51.769Z"},"_updated_at":{"$date":"2018-04-05T17:09:51.769Z"},"location":{"__type": "GeoPoint","latitude": -8.9285,"longitude": -70.2976}}
{"_id":"ahY0Z1MtFr","nome":"Santa Catarina","_created_at":{"$date":"2018-04-05T17:20:27.656Z"},"_updated_at":{"$date":"2018-04-05T17:20:27.656Z"},"location":{"__type": "GeoPoint","latitude": -27.0392,"longitude": -51.1586}}
{"_id":"eL3PbXrCAd","nome":"Amazonas","_created_at":{"$date":"2018-04-05T17:11:05.937Z"},"_updated_at":{"$date":"2018-04-05T17:11:05.937Z"},"location":{"__type": "GeoPoint","latitude": -4.21774,"longitude": -63.7853}}
{"_id":"f05TzHmhy5","nome":"Pernambuco","_created_at":{"$date":"2018-04-05T17:17:34.416Z"},"_updated_at":{"$date":"2018-04-05T17:17:34.416Z"},"location":{"__type": "GeoPoint","latitude": -8.47283,"longitude": -37.2958}}
{"_id":"hWqwkGQAhw","nome":"Piauí","_created_at":{"$date":"2018-04-05T17:17:53.150Z"},"_updated_at":{"$date":"2018-04-05T17:17:53.150Z"},"location":{"__type": "GeoPoint","latitude": -8.086980000000001,"longitude": -43.1974}}
{"_id":"lfYlbgBa5J","nome":"Rio Grande do Sul","_created_at":{"$date":"2018-04-05T17:19:03.433Z"},"_updated_at":{"$date":"2018-04-05T17:19:03.433Z"},"location":{"__type": "GeoPoint","latitude": -29.7277,"longitude": -53.656}}
{"_id":"mKmrm82vk8","nome":"Rondônia","_created_at":{"$date":"2018-04-05T17:19:46.666Z"},"_updated_at":{"$date":"2018-04-05T17:19:46.666Z"},"location":{"__type": "GeoPoint","latitude": -10.9712,"longitude": -63.1439}}
{"_id":"pCQjEN9KEP","nome":"Pará","_created_at":{"$date":"2018-04-05T17:15:28.948Z"},"_updated_at":{"$date":"2018-04-05T17:15:28.948Z"},"location":{"__type": "GeoPoint","latitude": -4.44313,"longitude":-52.6491}}
{"_id":"qXKHdDnxk7","nome":"Sergipe","_created_at":{"$date":"2018-04-05T17:20:43.028Z"},"_updated_at":{"$date":"2018-04-05T17:20:43.028Z"},"location":{"__type": "GeoPoint","latitude": -10.5918,"longitude": -37.3836}}
{"_id":"tXwJu3hseP","nome":"Paraná","_created_at":{"$date":"2018-04-05T17:17:13.024Z"},"_updated_at":{"$date":"2018-04-05T17:17:13.024Z"},"location":{"__type": "GeoPoint","latitude": -24.6618,"longitude": -51.3228}}
